[
  {
    "name": "Vivo for Healthier Generations - Court 1",
    "abbreviation": "VIVO1",
    "address": "11950 Country Village Link NE",
    "city": "Calgary",
    "province": "AB",
    "postal_code": "T3K 6E3",
    "country": "Canada",
    "latitude": 51.1456,
    "longitude": -114.0114,
    "capacity": 500,
    "type": "Gym",
    "facilities": ["Basketball Court", "Recreation Centre"],
    "surface_type": "Hardwood"
  },
  {
    "name": "Vivo for Healthier Generations - Court 2",
    "abbreviation": "VIVO2",
    "address": "11950 Country Village Link NE",
    "city": "Calgary",
    "province": "AB",
    "postal_code": "T3K 6E3",
    "country": "Canada",
    "latitude": 51.1456,
    "longitude": -114.0114,
    "capacity": 500,
    "type": "Gym",
    "facilities": ["Basketball Court", "Recreation Centre"],
    "surface_type": "Hardwood"
  },
  {
    "name": "Shouldice Athletic Park - Court 1",
    "abbreviation": "SAP1",
    "address": "2220 14 Ave NW",
    "city": "Calgary",
    "province": "AB",
    "postal_code": "T2N 1M5",
    "country": "Canada",
    "latitude": 51.0564,
    "longitude": -114.1052,
    "capacity": 300,
    "type": "Gym",
    "facilities": ["Basketball Court", "Athletic Park"],
    "surface_type": "Hardwood"
  },
  {
    "name": "Shouldice Athletic Park - Court 2",
    "abbreviation": "SAP2",
    "address": "2220 14 Ave NW",
    "city": "Calgary",
    "province": "AB",
    "postal_code": "T2N 1M5",
    "country": "Canada",
    "latitude": 51.0564,
    "longitude": -114.1052,
    "capacity": 300,
    "type": "Gym",
    "facilities": ["Basketball Court", "Athletic Park"],
    "surface_type": "Hardwood"
  },
  {
    "name": "Trico Centre - Court 1",
    "abbreviation": "TRICO1",
    "address": "11150 Bonaventure Dr SE",
    "city": "Calgary",
    "province": "AB",
    "postal_code": "T2J 7C4",
    "country": "Canada",
    "latitude": 50.9271,
    "longitude": -114.0446,
    "capacity": 400,
    "type": "Gym",
    "facilities": ["Basketball Court", "Community Centre"],
    "surface_type": "Hardwood"
  },
  {
    "name": "Trico Centre - Court 2",
    "abbreviation": "TRICO2",
    "address": "11150 Bonaventure Dr SE",
    "city": "Calgary",
    "province": "AB",
    "postal_code": "T2J 7C4",
    "country": "Canada",
    "latitude": 50.9271,
    "longitude": -114.0446,
    "capacity": 400,
    "type": "Gym",
    "facilities": ["Basketball Court", "Community Centre"],
    "surface_type": "Hardwood"
  },
  {
    "name": "Genesis Centre - Court 1",
    "abbreviation": "GEN1",
    "address": "7555 Falconridge Blvd NE",
    "city": "Calgary",
    "province": "AB",
    "postal_code": "T3J 0C9",
    "country": "Canada",
    "latitude": 51.1033,
    "longitude": -113.9476,
    "capacity": 600,
    "type": "Gym",
    "facilities": ["Basketball Court", "Recreation Complex"],
    "surface_type": "Hardwood"
  },
  {
    "name": "Genesis Centre - Court 2",
    "abbreviation": "GEN2",
    "address": "7555 Falconridge Blvd NE",
    "city": "Calgary",
    "province": "AB",
    "postal_code": "T3J 0C9",
    "country": "Canada",
    "latitude": 51.1033,
    "longitude": -113.9476,
    "capacity": 600,
    "type": "Gym",
    "facilities": ["Basketball Court", "Recreation Complex"],
    "surface_type": "Hardwood"
  },
  {
    "name": "Cardel Place - Court 1",
    "abbreviation": "CARD1",
    "address": "11 Cardel Pl SW",
    "city": "Calgary",
    "province": "AB",
    "postal_code": "T3H 5T9",
    "country": "Canada",
    "latitude": 51.0144,
    "longitude": -114.1872,
    "capacity": 450,
    "type": "Gym",
    "facilities": ["Basketball Court", "Community Centre"],
    "surface_type": "Hardwood"
  },
  {
    "name": "Cardel Place - Court 2",
    "abbreviation": "CARD2",
    "address": "11 Cardel Pl SW",
    "city": "Calgary",
    "province": "AB",
    "postal_code": "T3H 5T9",
    "country": "Canada",
    "latitude": 51.0144,
    "longitude": -114.1872,
    "capacity": 450,
    "type": "Gym",
    "facilities": ["Basketball Court", "Community Centre"],
    "surface_type": "Hardwood"
  },
  {
    "name": "Repsol Sport Centre - Court 1",
    "abbreviation": "REPSOL1",
    "address": "2225 Macleod Trail SE",
    "city": "Calgary",
    "province": "AB",
    "postal_code": "T2G 5B6",
    "country": "Canada",
    "latitude": 51.0330,
    "longitude": -114.0652,
    "capacity": 500,
    "type": "Gym",
    "facilities": ["Basketball Court", "Sport Complex"],
    "surface_type": "Hardwood"
  },
  {
    "name": "Repsol Sport Centre - Court 2",
    "abbreviation": "REPSOL2",
    "address": "2225 Macleod Trail SE",
    "city": "Calgary",
    "province": "AB",
    "postal_code": "T2G 5B6",
    "country": "Canada",
    "latitude": 51.0330,
    "longitude": -114.0652,
    "capacity": 500,
    "type": "Gym",
    "facilities": ["Basketball Court", "Sport Complex"],
    "surface_type": "Hardwood"
  },
  {
    "name": "MNP Community & Sport Centre - Court 1",
    "abbreviation": "MNP1",
    "address": "2225 Macleod Trail S",
    "city": "Calgary",
    "province": "AB",
    "postal_code": "T2G 5B6",
    "country": "Canada",
    "latitude": 51.0330,
    "longitude": -114.0650,
    "capacity": 800,
    "type": "Gym",
    "facilities": ["Basketball Court", "Sport Complex"],
    "surface_type": "Hardwood"
  },
  {
    "name": "MNP Community & Sport Centre - Court 2",
    "abbreviation": "MNP2",
    "address": "2225 Macleod Trail S",
    "city": "Calgary",
    "province": "AB",
    "postal_code": "T2G 5B6",
    "country": "Canada",
    "latitude": 51.0330,
    "longitude": -114.0650,
    "capacity": 800,
    "type": "Gym",
    "facilities": ["Basketball Court", "Sport Complex"],
    "surface_type": "Hardwood"
  },
  {
    "name": "University of Calgary - Kinesiology Gym",
    "abbreviation": "UCKIN",
    "address": "2500 University Dr NW",
    "city": "Calgary",
    "province": "AB",
    "postal_code": "T2N 1N4",
    "country": "Canada",
    "latitude": 51.0791,
    "longitude": -114.1332,
    "capacity": 350,
    "type": "Gym",
    "facilities": ["Basketball Court", "University"],
    "surface_type": "Hardwood"
  },
  {
    "name": "University of Calgary - Jack Simpson Gym",
    "abbreviation": "UCJS",
    "address": "2500 University Dr NW",
    "city": "Calgary",
    "province": "AB",
    "postal_code": "T2N 1N4",
    "country": "Canada",
    "latitude": 51.0793,
    "longitude": -114.1334,
    "capacity": 500,
    "type": "Gym",
    "facilities": ["Basketball Court", "University"],
    "surface_type": "Hardwood"
  },
  {
    "name": "Mount Royal University - Kenyon Gym Court 1",
    "abbreviation": "MRU1",
    "address": "4825 Mount Royal Gate SW",
    "city": "Calgary",
    "province": "AB",
    "postal_code": "T3E 6K6",
    "country": "Canada",
    "latitude": 51.0104,
    "longitude": -114.1335,
    "capacity": 600,
    "type": "Gym",
    "facilities": ["Basketball Court", "University"],
    "surface_type": "Hardwood"
  },
  {
    "name": "Mount Royal University - Kenyon Gym Court 2",
    "abbreviation": "MRU2",
    "address": "4825 Mount Royal Gate SW",
    "city": "Calgary",
    "province": "AB",
    "postal_code": "T3E 6K6",
    "country": "Canada",
    "latitude": 51.0104,
    "longitude": -114.1335,
    "capacity": 600,
    "type": "Gym",
    "facilities": ["Basketball Court", "University"],
    "surface_type": "Hardwood"
  },
  {
    "name": "SAIT Campus Centre - Court 1",
    "abbreviation": "SAIT1",
    "address": "1301 16 Ave NW",
    "city": "Calgary",
    "province": "AB",
    "postal_code": "T2M 0L4",
    "country": "Canada",
    "latitude": 51.0669,
    "longitude": -114.0936,
    "capacity": 400,
    "type": "Gym",
    "facilities": ["Basketball Court", "College"],
    "surface_type": "Hardwood"
  },
  {
    "name": "SAIT Campus Centre - Court 2",
    "abbreviation": "SAIT2",
    "address": "1301 16 Ave NW",
    "city": "Calgary",
    "province": "AB",
    "postal_code": "T2M 0L4",
    "country": "Canada",
    "latitude": 51.0669,
    "longitude": -114.0936,
    "capacity": 400,
    "type": "Gym",
    "facilities": ["Basketball Court", "College"],
    "surface_type": "Hardwood"
  },
  {
    "name": "Westside Recreation Centre - Court 1",
    "abbreviation": "WRC1",
    "address": "2000 69 St SW",
    "city": "Calgary",
    "province": "AB",
    "postal_code": "T3H 3C2",
    "country": "Canada",
    "latitude": 51.0195,
    "longitude": -114.1745,
    "capacity": 350,
    "type": "Gym",
    "facilities": ["Basketball Court", "Recreation Centre"],
    "surface_type": "Hardwood"
  },
  {
    "name": "Westside Recreation Centre - Court 2",
    "abbreviation": "WRC2",
    "address": "2000 69 St SW",
    "city": "Calgary",
    "province": "AB",
    "postal_code": "T3H 3C2",
    "country": "Canada",
    "latitude": 51.0195,
    "longitude": -114.1745,
    "capacity": 350,
    "type": "Gym",
    "facilities": ["Basketball Court", "Recreation Centre"],
    "surface_type": "Hardwood"
  },
  {
    "name": "7 Chiefs Sportsplex - Court 1",
    "abbreviation": "7CS1",
    "address": "9911 Chiila Blvd",
    "city": "Tsuut'ina Nation",
    "province": "AB",
    "postal_code": "T2W 6H6",
    "country": "Canada",
    "latitude": 50.9623,
    "longitude": -114.1512,
    "capacity": 700,
    "type": "Gym",
    "facilities": ["Basketball Court", "Sports Complex"],
    "surface_type": "Hardwood"
  },
  {
    "name": "7 Chiefs Sportsplex - Court 2",
    "abbreviation": "7CS2",
    "address": "9911 Chiila Blvd",
    "city": "Tsuut'ina Nation",
    "province": "AB",
    "postal_code": "T2W 6H6",
    "country": "Canada",
    "latitude": 50.9623,
    "longitude": -114.1512,
    "capacity": 700,
    "type": "Gym",
    "facilities": ["Basketball Court", "Sports Complex"],
    "surface_type": "Hardwood"
  },
  {
    "name": "7 Chiefs Sportsplex - Court 3",
    "abbreviation": "7CS3",
    "address": "9911 Chiila Blvd",
    "city": "Tsuut'ina Nation",
    "province": "AB",
    "postal_code": "T2W 6H6",
    "country": "Canada",
    "latitude": 50.9623,
    "longitude": -114.1512,
    "capacity": 700,
    "type": "Gym",
    "facilities": ["Basketball Court", "Sports Complex"],
    "surface_type": "Hardwood"
  },
  {
    "name": "Nose Hill Community Association",
    "abbreviation": "NHCA",
    "address": "4500 Brisebois Dr NW",
    "city": "Calgary",
    "province": "AB",
    "postal_code": "T2L 0Y3",
    "country": "Canada",
    "latitude": 51.1119,
    "longitude": -114.1299,
    "capacity": 250,
    "type": "Gym",
    "facilities": ["Basketball Court", "Community Centre"],
    "surface_type": "Hardwood"
  },
  {
    "name": "Crowfoot YMCA",
    "abbreviation": "YMCA-CF",
    "address": "150 Crowfoot Cres NW",
    "city": "Calgary",
    "province": "AB",
    "postal_code": "T3G 3T2",
    "country": "Canada",
    "latitude": 51.1267,
    "longitude": -114.1880,
    "capacity": 300,
    "type": "Gym",
    "facilities": ["Basketball Court", "YMCA"],
    "surface_type": "Hardwood"
  },
  {
    "name": "Shawnessy YMCA",
    "abbreviation": "YMCA-SH",
    "address": "333 Shawville Blvd SE",
    "city": "Calgary",
    "province": "AB",
    "postal_code": "T2Y 4H2",
    "country": "Canada",
    "latitude": 50.8975,
    "longitude": -114.0645,
    "capacity": 350,
    "type": "Gym",
    "facilities": ["Basketball Court", "YMCA"],
    "surface_type": "Hardwood"
  },
  {
    "name": "Seton YMCA",
    "abbreviation": "YMCA-SET",
    "address": "35 Seton Gate SE",
    "city": "Calgary",
    "province": "AB",
    "postal_code": "T3M 2L3",
    "country": "Canada",
    "latitude": 50.8693,
    "longitude": -113.9632,
    "capacity": 400,
    "type": "Gym",
    "facilities": ["Basketball Court", "YMCA"],
    "surface_type": "Hardwood"
  },
  {
    "name": "Calgary Gymnastics Centre - Court 1",
    "abbreviation": "CGC1",
    "address": "255 Sackville Dr SW",
    "city": "Calgary",
    "province": "AB",
    "postal_code": "T3C 4B2",
    "country": "Canada",
    "latitude": 51.0232,
    "longitude": -114.1184,
    "capacity": 300,
    "type": "Gym",
    "facilities": ["Basketball Court", "Multi-Sport"],
    "surface_type": "Hardwood"
  },
  {
    "name": "Inglewood Community Centre",
    "abbreviation": "ICC",
    "address": "1740 24 Ave SE",
    "city": "Calgary",
    "province": "AB",
    "postal_code": "T2G 1P9",
    "country": "Canada",
    "latitude": 51.0386,
    "longitude": -114.0406,
    "capacity": 200,
    "type": "Gym",
    "facilities": ["Basketball Court", "Community Centre"],
    "surface_type": "Hardwood"
  },
  {
    "name": "Bridgeland Community Centre",
    "abbreviation": "BCC",
    "address": "917 Centre Ave NE",
    "city": "Calgary",
    "province": "AB",
    "postal_code": "T2E 0C5",
    "country": "Canada",
    "latitude": 51.0550,
    "longitude": -114.0525,
    "capacity": 200,
    "type": "Gym",
    "facilities": ["Basketball Court", "Community Centre"],
    "surface_type": "Hardwood"
  },
  {
    "name": "Forest Lawn Community Centre",
    "abbreviation": "FLCC",
    "address": "1316 44 St SE",
    "city": "Calgary",
    "province": "AB",
    "postal_code": "T2A 1M6",
    "country": "Canada",
    "latitude": 51.0438,
    "longitude": -113.9709,
    "capacity": 250,
    "type": "Gym",
    "facilities": ["Basketball Court", "Community Centre"],
    "surface_type": "Hardwood"
  },
  {
    "name": "Thornhill Community Centre",
    "abbreviation": "TCC",
    "address": "5600 Centre St N",
    "city": "Calgary",
    "province": "AB",
    "postal_code": "T2K 0T3",
    "country": "Canada",
    "latitude": 51.0972,
    "longitude": -114.0669,
    "capacity": 250,
    "type": "Gym",
    "facilities": ["Basketball Court", "Community Centre"],
    "surface_type": "Hardwood"
  },
  {
    "name": "Renfrew Community Centre",
    "abbreviation": "RCC",
    "address": "1204 Renfrew Dr NE",
    "city": "Calgary",
    "province": "AB",
    "postal_code": "T2E 5G8",
    "country": "Canada",
    "latitude": 51.0584,
    "longitude": -114.0319,
    "capacity": 200,
    "type": "Gym",
    "facilities": ["Basketball Court", "Community Centre"],
    "surface_type": "Hardwood"
  },
  {
    "name": "Huntington Hills Community Centre",
    "abbreviation": "HHCC",
    "address": "6915 Hunterview Dr NW",
    "city": "Calgary",
    "province": "AB",
    "postal_code": "T2K 4A9",
    "country": "Canada",
    "latitude": 51.1069,
    "longitude": -114.1090,
    "capacity": 250,
    "type": "Gym",
    "facilities": ["Basketball Court", "Community Centre"],
    "surface_type": "Hardwood"
  },
  {
    "name": "Acadia Recreation Complex",
    "abbreviation": "ARC",
    "address": "9009 Fairmount Dr SE",
    "city": "Calgary",
    "province": "AB",
    "postal_code": "T2J 0S1",
    "country": "Canada",
    "latitude": 50.9619,
    "longitude": -114.0770,
    "capacity": 300,
    "type": "Gym",
    "facilities": ["Basketball Court", "Recreation Complex"],
    "surface_type": "Hardwood"
  },
  {
    "name": "Southland Leisure Centre",
    "abbreviation": "SLC",
    "address": "2000 Southland Dr SW",
    "city": "Calgary",
    "province": "AB",
    "postal_code": "T2V 4X1",
    "country": "Canada",
    "latitude": 50.9784,
    "longitude": -114.0768,
    "capacity": 400,
    "type": "Gym",
    "facilities": ["Basketball Court", "Leisure Centre"],
    "surface_type": "Hardwood"
  },
  {
    "name": "Quarry Park Community Centre",
    "abbreviation": "QPCC",
    "address": "195 Quarry Park Blvd SE",
    "city": "Calgary",
    "province": "AB",
    "postal_code": "T2C 5G9",
    "country": "Canada",
    "latitude": 50.9793,
    "longitude": -114.0203,
    "capacity": 300,
    "type": "Gym",
    "facilities": ["Basketball Court", "Community Centre"],
    "surface_type": "Hardwood"
  },
  {
    "name": "Eau Claire YMCA",
    "abbreviation": "YMCA-EC",
    "address": "101 3 St SW",
    "city": "Calgary",
    "province": "AB",
    "postal_code": "T2P 3V7",
    "country": "Canada",
    "latitude": 51.0536,
    "longitude": -114.0699,
    "capacity": 250,
    "type": "Gym",
    "facilities": ["Basketball Court", "YMCA"],
    "surface_type": "Hardwood"
  },
  {
    "name": "Rocky Ridge Community Centre",
    "abbreviation": "RRCC",
    "address": "11300 Tuscany Blvd NW",
    "city": "Calgary",
    "province": "AB",
    "postal_code": "T3L 2V7",
    "country": "Canada",
    "latitude": 51.1322,
    "longitude": -114.2214,
    "capacity": 300,
    "type": "Gym",
    "facilities": ["Basketball Court", "Community Centre"],
    "surface_type": "Hardwood"
  },
  {
    "name": "Brookfield Residential YMCA",
    "abbreviation": "YMCA-BR",
    "address": "200 Seton Cir SE",
    "city": "Calgary",
    "province": "AB",
    "postal_code": "T3M 2W2",
    "country": "Canada",
    "latitude": 50.8689,
    "longitude": -113.9641,
    "capacity": 400,
    "type": "Gym",
    "facilities": ["Basketball Court", "YMCA"],
    "surface_type": "Hardwood"
  },
  {
    "name": "Panorama Hills Community Centre",
    "abbreviation": "PHCC",
    "address": "100 Panamount Dr NW",
    "city": "Calgary",
    "province": "AB",
    "postal_code": "T3K 6B3",
    "country": "Canada",
    "latitude": 51.1553,
    "longitude": -114.0989,
    "capacity": 300,
    "type": "Gym",
    "facilities": ["Basketball Court", "Community Centre"],
    "surface_type": "Hardwood"
  },
  {
    "name": "Auburn Bay Recreation Centre",
    "abbreviation": "ABRC",
    "address": "40 Auburn Bay Link SE",
    "city": "Calgary",
    "province": "AB",
    "postal_code": "T3M 0L3",
    "country": "Canada",
    "latitude": 50.8704,
    "longitude": -113.9370,
    "capacity": 350,
    "type": "Gym",
    "facilities": ["Basketball Court", "Recreation Centre"],
    "surface_type": "Hardwood"
  },
  {
    "name": "Mahogany Community Centre",
    "abbreviation": "MCC",
    "address": "35 Mahogany Plaza SE",
    "city": "Calgary",
    "province": "AB",
    "postal_code": "T3M 2L6",
    "country": "Canada",
    "latitude": 50.8534,
    "longitude": -113.9431,
    "capacity": 300,
    "type": "Gym",
    "facilities": ["Basketball Court", "Community Centre"],
    "surface_type": "Hardwood"
  },
  {
    "name": "Bob Bahan Aquatic & Fitness Centre",
    "abbreviation": "BBAFC",
    "address": "171 West Springs Rd SW",
    "city": "Calgary",
    "province": "AB",
    "postal_code": "T3H 4V9",
    "country": "Canada",
    "latitude": 51.0451,
    "longitude": -114.2209,
    "capacity": 250,
    "type": "Gym",
    "facilities": ["Basketball Court", "Fitness Centre"],
    "surface_type": "Hardwood"
  },
  {
    "name": "Glenmore Athletic Park",
    "abbreviation": "GAP",
    "address": "8411 24 St SW",
    "city": "Calgary",
    "province": "AB",
    "postal_code": "T2V 1P6",
    "country": "Canada",
    "latitude": 50.9624,
    "longitude": -114.0793,
    "capacity": 300,
    "type": "Gym",
    "facilities": ["Basketball Court", "Athletic Park"],
    "surface_type": "Hardwood"
  },
  {
    "name": "Cardel Rec South - Court 1",
    "abbreviation": "CRS1",
    "address": "333 Shawville Blvd SE",
    "city": "Calgary",
    "province": "AB",
    "postal_code": "T2Y 4H2",
    "country": "Canada",
    "latitude": 50.8975,
    "longitude": -114.0645,
    "capacity": 450,
    "type": "Gym",
    "facilities": ["Basketball Court", "Recreation Centre"],
    "surface_type": "Hardwood"
  },
  {
    "name": "Cardel Rec South - Court 2",
    "abbreviation": "CRS2",
    "address": "333 Shawville Blvd SE",
    "city": "Calgary",
    "province": "AB",
    "postal_code": "T2Y 4H2",
    "country": "Canada",
    "latitude": 50.8975,
    "longitude": -114.0645,
    "capacity": 450,
    "type": "Gym",
    "facilities": ["Basketball Court", "Recreation Centre"],
    "surface_type": "Hardwood"
  }
]
